{
  "municipality": "3121605",
  "polling_places_total": 36,
  "unique_codes": 36,
  "unique_points": 36,
  "outside_any_district": [],
  "outside_expected_district": [],
  "override_distance_violations": [],
  "status": "pass",
  "items": [
    {
      "code": "1015",
      "name": "UEMG (ANTIGA FEVALE)",
      "district": "Diamantina",
      "source": "nominatim:UEMG Diamantina",
      "sections": 13,
      "voters": 3105,
      "lat": -18.241002,
      "lon": -43.602567,
      "within_district": true
    },
    {
      "code": "1040",
      "name": "E. E. MARIA AUGUSTA CALDEIRA BRANT",
      "district": "Diamantina",
      "source": "nominatim_addr:R ENOLOGIA 303",
      "sections": 6,
      "voters": 1371,
      "lat": -18.238212,
      "lon": -43.611947,
      "within_district": true
    },
    {
      "code": "1058",
      "name": "E. E. PROF. LEOPOLDO MIRANDA",
      "district": "Diamantina",
      "source": "nominatim_addr:R MACAU DO MEIO 338",
      "sections": 8,
      "voters": 1768,
      "lat": -18.241914,
      "lon": -43.598926,
      "within_district": true
    },
    {
      "code": "1082",
      "name": "E. E. MATTA MACHADO",
      "district": "Diamantina",
      "source": "nominatim_addr:R MACAU DE BAIXO 307",
      "sections": 7,
      "voters": 1945,
      "lat": -18.242277,
      "lon": -43.598272,
      "within_district": true
    },
    {
      "code": "1155",
      "name": "E. E. PROF. JOSÉ AUGUSTO NEVES",
      "district": "Diamantina",
      "source": "inep_road:Travessa Caetano Mascarenhas",
      "sections": 6,
      "voters": 2287,
      "lat": -18.23838,
      "lon": -43.59445,
      "within_district": true
    },
    {
      "code": "1163",
      "name": "INSS",
      "district": "Diamantina",
      "source": "nominatim:INSS Diamantina",
      "sections": 2,
      "voters": 679,
      "lat": -18.245334,
      "lon": -43.594527,
      "within_district": true
    },
    {
      "code": "1180",
      "name": "E. E. PROF.ª GABRIELA NEVES",
      "district": "Diamantina",
      "source": "inep_road:Rua da Palha",
      "sections": 9,
      "voters": 2775,
      "lat": -18.252199,
      "lon": -43.588595,
      "within_district": true
    },
    {
      "code": "1198",
      "name": "E. E. JÚLIA KUBITSCHEK",
      "district": "Diamantina",
      "source": "nominatim_addr:R JOGO DA BOLA 120",
      "sections": 8,
      "voters": 2393,
      "lat": -18.248018,
      "lon": -43.597017,
      "within_district": true
    },
    {
      "code": "1210",
      "name": "E. E. JOAQUIM FELÍCIO DOS SANTOS",
      "district": "Diamantina",
      "source": "nominatim_addr:R NAZARE 233",
      "sections": 7,
      "voters": 2417,
      "lat": -18.24607,
      "lon": -43.599738,
      "within_district": true
    },
    {
      "code": "1228",
      "name": "E. M. CASA DA CRIANÇA MARIA ANTONIA",
      "district": "Diamantina",
      "source": "nominatim_addr:RUA CRUZ DE MOISES",
      "sections": 2,
      "voters": 84,
      "lat": -18.253042,
      "lon": -43.590732,
      "within_district": true
    },
    {
      "code": "1236",
      "name": "E. E. PROF.ª ISABEL MOTA",
      "district": "Diamantina",
      "source": "inep_road:Travessa Elvira Ramos Couto",
      "sections": 8,
      "voters": 2736,
      "lat": -18.238052,
      "lon": -43.608488,
      "within_district": true
    },
    {
      "code": "1244",
      "name": "E. E. PROF.ª AYNA TORRES",
      "district": "Diamantina",
      "source": "inep_road:Rua Prof. Paulino Guimaraes Junior",
      "sections": 7,
      "voters": 1911,
      "lat": -18.240565,
      "lon": -43.60163,
      "within_district": true
    },
    {
      "code": "1252",
      "name": "E. E. D. JOAQUIM SILVÉRIO DE SOUZA",
      "district": "Conselheiro Mata",
      "source": "user_google:homologado",
      "sections": 1,
      "voters": 237,
      "lat": -18.287868,
      "lon": -43.982343,
      "within_district": true,
      "override_distance_m": 0.0,
      "override_match": true
    },
    {
      "code": "1260",
      "name": "E. E. DONA GUIDINHA",
      "district": "Diamantina",
      "source": "manual:praca_matriz",
      "sections": 3,
      "voters": 924,
      "lat": -18.248,
      "lon": -43.601,
      "within_district": true
    },
    {
      "code": "1279",
      "name": "E. M. NATHÁLIA DE JESUS SILVA",
      "district": "Diamantina",
      "source": "nominatim_addr:RUA GRUTA DE LOURDES 4180",
      "sections": 2,
      "voters": 312,
      "lat": -18.260997,
      "lon": -43.579841,
      "within_district": true
    },
    {
      "code": "1287",
      "name": "RECEPTIVO VILA REAL DO VAU",
      "district": "Extração",
      "source": "nominatim:Vau",
      "sections": 1,
      "voters": 184,
      "lat": -18.416567,
      "lon": -43.525072,
      "within_district": true
    },
    {
      "code": "1295",
      "name": "E. M. GUINDA",
      "district": "Guinda",
      "source": "nominatim:Guinda",
      "sections": 2,
      "voters": 437,
      "lat": -18.281855,
      "lon": -43.728092,
      "within_district": true
    },
    {
      "code": "1309",
      "name": "E. E. JOÃO CÉSAR DE OLIVEIRA",
      "district": "Inhaí",
      "source": "nominatim:Inhai district",
      "sections": 3,
      "voters": 991,
      "lat": -17.944828,
      "lon": -43.623091,
      "within_district": true
    },
    {
      "code": "1317",
      "name": "E. M. MARIA NUNES",
      "district": "Inhaí",
      "source": "nominatim:Maria Nunes",
      "sections": 2,
      "voters": 398,
      "lat": -18.005,
      "lon": -43.553401,
      "within_district": true
    },
    {
      "code": "1325",
      "name": "E. M. PROF.ª ANA CÉLIA DE O. SOUZA",
      "district": "Mendanha",
      "source": "user_google:homologado",
      "sections": 2,
      "voters": 508,
      "lat": -18.106846,
      "lon": -43.52775,
      "within_district": true,
      "override_distance_m": 0.0,
      "override_match": true
    },
    {
      "code": "1333",
      "name": "E. E. DURVAL CÂNDIDO CRUZ",
      "district": "Planalto de Minas",
      "source": "osm_school:EE Durval Candido Cruz",
      "sections": 3,
      "voters": 780,
      "lat": -17.650642,
      "lon": -43.322148,
      "within_district": true
    },
    {
      "code": "1341",
      "name": "E. E. GOV. JUSCELINO KUBITSCHEK",
      "district": "Conselheiro Mata",
      "source": "nominatim_addr:Rua Principal Conselheiro Mata",
      "sections": 6,
      "voters": 1274,
      "lat": -18.287522,
      "lon": -43.9819,
      "within_district": true,
      "override_distance_m": 0.0,
      "override_match": true
    },
    {
      "code": "1350",
      "name": "E. M. PINHEIRO",
      "district": "Inhaí",
      "source": "nominatim:Pinheiro",
      "sections": 2,
      "voters": 364,
      "lat": -18.08017,
      "lon": -43.634096,
      "within_district": true
    },
    {
      "code": "1368",
      "name": "E. E. ARTHUR TIBÃES",
      "district": "Diamantina",
      "source": "nominatim_addr:R DAS MERCES",
      "sections": 6,
      "voters": 1792,
      "lat": -18.246828,
      "lon": -43.598947,
      "within_district": true
    },
    {
      "code": "1376",
      "name": "E. M. SOPA",
      "district": "Sopa",
      "source": "user_google:homologado",
      "sections": 2,
      "voters": 544,
      "lat": -18.224691,
      "lon": -43.696214,
      "within_district": true,
      "override_distance_m": 0.0,
      "override_match": true
    },
    {
      "code": "1384",
      "name": "E. M. PEDRARIA",
      "district": "Senador Mourão",
      "source": "district_centroid:senador_mourao",
      "sections": 1,
      "voters": 199,
      "lat": -17.734297,
      "lon": -43.503463,
      "within_district": true
    },
    {
      "code": "1392",
      "name": "E. M. PEDRO BAIANO",
      "district": "Extração",
      "source": "manual:povoado_pedro_baiano",
      "sections": 1,
      "voters": 92,
      "lat": -18.32,
      "lon": -43.55,
      "within_district": true
    },
    {
      "code": "1406",
      "name": "E. M. BAIXADÃO",
      "district": "Planalto de Minas",
      "source": "nominatim:Baixadao_Diamantina",
      "sections": 2,
      "voters": 178,
      "lat": -17.47843,
      "lon": -43.269049,
      "within_district": true,
      "override_distance_m": 0.0,
      "override_match": true
    },
    {
      "code": "1414",
      "name": "E. M. ROGÉRIO FIRMINO LOPES",
      "district": "Desembargador Otoni",
      "source": "district_pointonsurface:desembargador_otoni",
      "sections": 1,
      "voters": 308,
      "lat": -17.647633,
      "lon": -43.403651,
      "within_district": true,
      "override_distance_m": 0.0,
      "override_match": true
    },
    {
      "code": "1422",
      "name": "E. M. MÃO TORTA",
      "district": "Desembargador Otoni",
      "source": "district_centroid:desembargador_otoni",
      "sections": 1,
      "voters": 200,
      "lat": -17.657048,
      "lon": -43.395739,
      "within_district": true,
      "override_distance_m": 0.0,
      "override_match": true
    },
    {
      "code": "1457",
      "name": "E. M. BATATAL",
      "district": "Conselheiro Mata",
      "source": "nominatim:settlement_conselheiro_mata",
      "sections": 1,
      "voters": 197,
      "lat": -18.288633,
      "lon": -43.981851,
      "within_district": true,
      "override_distance_m": 0.0,
      "override_match": true
    },
    {
      "code": "1465",
      "name": "E. M. DE ED. INFANTIL PROF. CÉLIO HUGO ALVES PEREIRA (ANTIGO SESI)",
      "district": "Diamantina",
      "source": "manual:bairro_rio_grande",
      "sections": 5,
      "voters": 1256,
      "lat": -18.254,
      "lon": -43.592,
      "within_district": true
    },
    {
      "code": "1473",
      "name": "E. E. PROF. GABRIEL MANDACARU",
      "district": "Diamantina",
      "source": "nominatim_addr:R DAS CAMELIAS 311",
      "sections": 4,
      "voters": 791,
      "lat": -18.24431,
      "lon": -43.59059,
      "within_district": true
    },
    {
      "code": "1490",
      "name": "E. M. JALIRA LUCCHESI DE MIRANDA",
      "district": "Diamantina",
      "source": "nominatim_addr:RUA CONSUELO FALCI 231",
      "sections": 3,
      "voters": 562,
      "lat": -18.227639,
      "lon": -43.609694,
      "within_district": true
    },
    {
      "code": "1503",
      "name": "CMEI PREFEITO IRAVAL PIRES",
      "district": "Diamantina",
      "source": "nominatim_addr:RUA CASACA PARDA 231",
      "sections": 3,
      "voters": 454,
      "lat": -18.235873,
      "lon": -43.634538,
      "within_district": true
    },
    {
      "code": "1520",
      "name": "SUPERINTENDÊNCIA REGIONAL DE ENSINO",
      "district": "Diamantina",
      "source": "nominatim:SRE Diamantina",
      "sections": 4,
      "voters": 419,
      "lat": -18.245545,
      "lon": -43.603104,
      "within_district": true
    }
  ]
}